Timestamp,counter,accSurge,accSway,accHeave,oriPitch,oriRoll,oriYaw,CurLapTime,Throttle,Brake,Speed
0.0029578208923339844,1,0,0,0,1.6010276109109327,2.8515209489933113,177.18318035372977,00:02:50.4120000,0,0,0
0.019126176834106445,2,0,0,0,1.6010276109109327,2.8515209489933113,177.18318035372977,00:02:50.4120000,0,0,0
0.03684210777282715,3,0,0,0,1.601014377419233,2.8515143322474614,177.18318035372977,00:02:50.4500000,0,0,0
0.05166125297546387,4,0,0,0,1.601014377419233,2.8515143322474614,177.18318035372977,00:02:50.4500000,0,0,0
0.06902647018432617,5,0,0,0,1.601009788385909,2.851518387672513,177.18319401410827,00:02:50.4870000,0,0,0
0.08647847175598145,6,0,0,0,1.601009788385909,2.851518387672513,177.18319401410827,00:02:50.4870000,0,0,0
0.10178065299987793,7,0,0,0,1.6009990094935347,2.8515036600770145,177.1832076744863,00:02:50.5220000,0,0,0
0.11866974830627441,8,0,0,0,1.6009990094935347,2.8515036600770145,177.1832076744863,00:02:50.5220000,0,0,0
0.13588500022888184,9,0,0,0,1.600995807842537,2.851497897104764,177.1832213348648,00:02:50.5550000,0,0,0
0.1516437530517578,10,0,0,0,1.600995807842537,2.851497897104764,177.1832213348648,00:02:50.5550000,0,0,0
0.16833829879760742,11,0,0,0,1.6010087211689097,2.851485090499864,177.18323499524286,00:02:50.5800000,0,0,0
0.18669605255126953,12,0,0,0,1.6009917524174853,2.851483596396065,177.18323499524286,00:02:50.6020000,0,0,0
0.20190954208374023,13,0,0,0,1.6009971952244086,2.851481035075267,177.18323499524286,00:02:50.6150000,0,0,0
0.21848797798156738,14,0,0,0,1.6009984758852625,2.851477833424269,177.18324865562136,00:02:50.6400000,0,0,0
0.23598074913024902,15,0,0,0,1.6009984758852625,2.851477833424269,177.18324865562136,00:02:50.6400000,0,0,0
0.2522153854370117,16,0,0,0,1.600988123879688,2.8514682284703667,177.18324865562136,00:02:50.6720000,0,0,0
0.26924586296081543,17,0,0,0,1.600992179304285,2.851474204886017,177.18326231599985,00:02:50.6850000,0,0,0
0.2857961654663086,18,0,0,0,1.600992179304285,2.851474204886017,177.18326231599985,00:02:50.6850000,0,0,0
0.3043174743652344,19,0,0,0,1.6009772382658412,2.851460331064118,177.1832759763779,00:02:50.7200000,0,0,0
0.31931567192077637,20,0,0,0,1.6009772382658412,2.851460331064118,177.1832759763779,00:02:50.7200000,0,0,0
0.3361656665802002,21,0,0,0,1.6009780920394405,2.8514564890829206,177.1832759763779,00:02:50.7570000,0,0,0
0.3523225784301758,22,0,0,0,1.6009780920394405,2.8514564890829206,177.1832759763779,00:02:50.7570000,0,0,0
0.3688476085662842,23,0,0,0,1.600974356779716,2.8514449631388743,177.1832896367564,00:02:50.7800000,0,0,0
0.3858470916748047,24,0,0,0,1.600974356779716,2.8514449631388743,177.1832896367564,00:02:50.7800000,0,0,0
0.4030344486236572,25,0,0,0,1.6009722223452627,2.8514345044113725,177.1833032971349,00:02:50.8170000,0,0,0
0.41982007026672363,26,0,0,0,1.6009729693973895,2.8514330103075736,177.1833032971349,00:02:50.8300000,0,0,0
0.43518924713134766,27,0,0,0,1.6009729693973895,2.8514330103075736,177.1833032971349,00:02:50.8300000,0,0,0
0.452298641204834,28,0,0,0,1.6009665660949395,2.8514223381371266,177.18331695751294,00:02:50.8650000,0,0,0
0.46892356872558594,29,0,0,0,1.600970514798064,2.851418069268675,177.18331695751294,00:02:50.8900000,0,0,0
0.485546350479126,30,0,0,0,1.600970514798064,2.851418069268675,177.18331695751294,00:02:50.8900000,0,0,0
0.5025453567504883,31,0,0,0,1.6009546132640935,2.8514208440333277,177.18333061789144,00:02:50.9250000,0,0,0
0.5207176208496094,32,0,0,0,1.6009546132640935,2.8514208440333277,177.18333061789144,00:02:50.9250000,0,0,0
0.536163330078125,33,0,0,0,1.6009499175088422,2.851412519740279,177.18334427826994,00:02:50.9500000,0,0,0
0.5518651008605957,34,0,0,0,1.6009499175088422,2.851412519740279,177.18334427826994,00:02:50.9500000,0,0,0
0.5691554546356201,35,0,0,0,1.6009461822491176,2.8514005669089784,177.183357938648,00:02:50.9850000,0,0,0
0.5856964588165283,36,0,0,0,1.6009461822491176,2.8514005669089784,177.183357938648,00:02:50.9850000,0,0,0
0.6024038791656494,37,0,0,0,1.6009384982862684,2.851390748512131,177.1833715990265,00:02:51.0220000,0,0,0
0.619208574295044,38,0,0,0,1.6009465024144447,2.85138541242668,177.1833715990265,00:02:51.0350000,0,0,0
0.6364455223083496,39,0,0,0,1.6009494906220425,2.8513849855398803,177.1833715990265,00:02:51.0470000,0,0,0
0.6524631977081299,40,0,0,0,1.6009373243477967,2.8513779419076855,177.183385259405,00:02:51.0700000,0,0,0
0.6688861846923828,41,0,0,0,1.6009406327207216,2.8513755940298324,177.183385259405,00:02:51.0820000,0,0,0
0.6858572959899902,42,0,0,0,1.6009406327207216,2.8513755940298324,177.183385259405,00:02:51.0820000,0,0,0
0.7022857666015625,43,0,0,0,1.6009313479321463,2.851377301577031,177.18339891978303,00:02:51.1170000,0,0,0
0.7187936305999756,44,0,0,0,1.6009303874366196,2.8513713251618356,177.18339891978303,00:02:51.1400000,0,0,0
0.7364552021026611,45,0,0,0,1.6009303874366196,2.8513713251618356,177.18339891978303,00:02:51.1400000,0,0,0
0.7527430057525635,46,0,0,0,1.60092974710642,2.851363000868787,177.18341258016153,00:02:51.1650000,0,0,0
0.7695708274841309,47,0,0,0,1.60092974710642,2.851363000868787,177.18341258016153,00:02:51.1650000,0,0,0
0.7857234477996826,48,0,0,0,1.6009234505258974,2.8513489136034877,177.18342624054003,00:02:51.2000000,0,0,0
0.8024561405181885,49,0,0,0,1.6009234505258974,2.8513489136034877,177.18342624054003,00:02:51.2000000,0,0,0
0.819716215133667,50,0,0,0,1.6009243042994967,2.8513425103010377,177.18343990091807,00:02:51.2350000,0,0,0
0.8358862400054932,51,0,0,0,1.6009234505258974,2.85133930865004,177.18343990091807,00:02:51.2470000,0,0,0
0.8521301746368408,52,0,0,0,1.6009234505258974,2.85133930865004,177.18343990091807,00:02:51.2470000,0,0,0
0.869645357131958,53,0,0,0,1.6009170472234473,2.8513294902531925,177.18345356129657,00:02:51.2850000,0,0,0
0.8857011795043945,54,0,0,0,1.6009170472234473,2.8513294902531925,177.18345356129657,00:02:51.2850000,0,0,0
0.9022698402404785,55,0,0,0,1.6009169405019748,2.8513273558187393,177.18346722167462,00:02:51.3220000,0,0,0
0.9197640419006348,56,0,0,0,1.6009061616096005,2.85132650204514,177.18346722167462,00:02:51.3350000,0,0,0
0.9353694915771484,57,0,0,0,1.6009061616096005,2.85132650204514,177.18346722167462,00:02:51.3350000,0,0,0
0.952289342880249,58,0,0,0,1.6008997583071505,2.851315829874693,177.18348088205312,00:02:51.3700000,0,0,0
0.968698263168335,59,0,0,0,1.6008998650290778,2.8513164702048925,177.18348088205312,00:02:51.3820000,0,0,0
0.9853260517120361,60,0,0,0,1.6008998650290778,2.8513164702048925,177.18348088205312,00:02:51.3820000,0,0,0
1.0024220943450928,61,0,0,0,1.6008954894391536,2.8512993947319956,177.18349454243162,00:02:51.4200000,0,0,0
1.0195088386535645,62,0,0,0,1.6008954894391536,2.8512993947319956,177.18349454243162,00:02:51.4200000,0,0,0
1.0363564491271973,63,0,0,0,1.6009036002888024,2.851293418316345,177.18350820281012,00:02:51.4500000,0,0,0
1.0520479679107666,64,0,0,0,1.6009036002888024,2.851293418316345,177.18350820281012,00:02:51.4500000,0,0,0
1.0695695877075195,65,0,0,0,1.6008934617266277,2.851284240249697,177.18350820281012,00:02:51.4850000,0,0,0
1.0857703685760498,66,0,0,0,1.6008934617266277,2.851284240249697,177.18350820281012,00:02:51.4850000,0,0,0
1.1022918224334717,67,0,0,0,1.6008872718675775,2.8512771966170476,177.18352186318816,00:02:51.5220000,0,0,0
1.1189560890197754,68,0,0,0,1.6008872718675775,2.8512771966170476,177.18352186318816,00:02:51.5220000,0,0,0
1.1354148387908936,69,0,0,0,1.6008831097210532,2.8512823192590986,177.18353552356666,00:02:51.5470000,0,0,0
1.151944637298584,70,0,0,0,1.6008831097210532,2.8512823192590986,177.18353552356666,00:02:51.5470000,0,0,0
1.1687891483306885,71,0,0,0,1.6008828962776533,2.851263536239003,177.1835491839447,00:02:51.5820000,0,0,0
1.1856813430786133,72,0,0,0,1.6008828962776533,2.851263536239003,177.1835491839447,00:02:51.5820000,0,0,0
1.202261209487915,73,0,0,0,1.600865500639884,2.851262255578604,177.1835491839447,00:02:51.6200000,0,0,0
1.2191264629364014,74,0,0,0,1.600865500639884,2.851262255578604,177.1835491839447,00:02:51.6200000,0,0,0
1.2361316680908203,75,0,0,0,1.6008719039418793,2.8512494489737037,177.1835628443232,00:02:51.6570000,0,0,0
1.2529401779174805,76,0,0,0,1.6008719039418793,2.8512494489737037,177.1835628443232,00:02:51.6570000,0,0,0
1.2687203884124756,77,0,0,0,1.6008703031166078,2.851243686001453,177.1835765047017,00:02:51.6800000,0,0,0
1.2859134674072266,78,0,0,0,1.6008703031166078,2.851243686001453,177.1835765047017,00:02:51.6800000,0,0,0
1.3040673732757568,79,0,0,0,1.6008627258752313,2.851229385293209,177.18359016507975,00:02:51.7200000,0,0,0
1.319650650024414,80,0,0,0,1.6008658208047564,2.8512295987366088,177.18359016507975,00:02:51.7370000,0,0,0
1.337562084197998,81,0,0,0,1.6008658208047564,2.8512295987366088,177.18359016507975,00:02:51.7370000,0,0,0
1.3537933826446533,82,0,0,0,1.600858883894034,2.851232160057407,177.18360382545825,00:02:51.7670000,0,0,0
1.370340347290039,83,0,0,0,1.600858883894034,2.851232160057407,177.18360382545825,00:02:51.7670000,0,0,0
1.3864881992340088,84,0,0,0,1.6008407412041379,2.8512193534525068,177.18361748583675,00:02:51.7970000,0,0,0
1.4014480113983154,85,0,0,0,1.6008407412041379,2.8512193534525068,177.18361748583675,00:02:51.7970000,0,0,0
1.4188899993896484,86,0,0,0,1.6008441562985354,2.85121487114111,177.18361748583675,00:02:51.8400000,0,0,0
1.4403235912322998,87,0,0,0,1.6008441562985354,2.85121487114111,177.18361748583675,00:02:51.8400000,0,0,0
1.4523537158966064,88,0,0,0,1.6008513066526575,2.8511982225550128,177.1836311462148,00:02:51.8650000,0,0,0
1.4691863059997559,89,0,0,0,1.6008389269350118,2.8511948074601605,177.1836448065933,00:02:51.8900000,0,0,0
1.4861462116241455,90,0,0,0,1.6008389269350118,2.8511948074601605,177.1836448065933,00:02:51.8900000,0,0,0
1.502737283706665,91,0,0,0,1.6008398874305385,2.8511877638279657,177.1836448065933,00:02:51.9250000,0,0,0
1.5189037322998047,92,0,0,0,1.6008398874305385,2.8511877638279657,177.1836448065933,00:02:51.9250000,0,0,0
1.5359292030334473,93,0,0,0,1.6008365790576136,2.851179226091517,177.1836584669718,00:02:51.9470000,0,0,0
1.5538296699523926,94,0,0,0,1.6008365790576136,2.851179226091517,177.1836584669718,00:02:51.9470000,0,0,0
1.569920301437378,95,0,0,0,1.6008327370759616,2.8511843487331134,177.18367212734984,00:02:51.9870000,0,0,0
1.586005687713623,96,0,0,0,1.6008291085381643,2.851173036232467,177.18367212734984,00:02:52,0,0,0
1.601527452468872,97,0,0,0,1.6008291085381643,2.851173036232467,177.18367212734984,00:02:52,0,0,0
1.618673324584961,98,0,0,0,1.6008300690332362,2.851167913590416,177.18368578772834,00:02:52.0350000,0,0,0
1.6355679035186768,99,0,0,0,1.6008283614860375,2.851160016184167,177.18369944810684,00:02:52.0470000,0,0,0
1.6520283222198486,100,0,0,0,1.6008283614860375,2.851160016184167,177.18369944810684,00:02:52.0470000,0,0,0
1.6704649925231934,101,0,0,0,1.6008175825936632,2.8511487036835206,177.18369944810684,00:02:52.0850000,0,0,0
1.6853618621826172,102,0,0,0,1.6008175825936632,2.8511487036835206,177.18369944810684,00:02:52.0850000,0,0,0
1.7018585205078125,103,0,0,0,1.6008187565325898,2.85114315415467,177.18371310848488,00:02:52.1200000,0,0,0
1.7196836471557617,104,0,0,0,1.6008076574753431,2.8511399525036722,177.18371310848488,00:02:52.1320000,0,0,0
1.736499547958374,105,0,0,0,1.600813420447139,2.851132481984223,177.18372676886338,00:02:52.1570000,0,0,0
1.752413034439087,106,0,0,0,1.600813420447139,2.851132481984223,177.18372676886338,00:02:52.1570000,0,0,0
1.7689399719238281,107,0,0,0,1.600813740612466,2.851137391182874,177.18374042924188,00:02:52.1820000,0,0,0
1.785630464553833,108,0,0,0,1.600813740612466,2.851137391182874,177.18374042924188,00:02:52.1820000,0,0,0
1.8027551174163818,109,0,0,0,1.6008048827106904,2.851120742596322,177.18374042924188,00:02:52.2170000,0,0,0
1.819031000137329,110,0,0,0,1.6008048827106904,2.851120742596322,177.18374042924188,00:02:52.2170000,0,0,0
1.8361937999725342,111,0,0,0,1.6008080843621428,2.8511209560401767,177.18375408961992,00:02:52.2520000,0,0,0
1.8528234958648682,112,0,0,0,1.6008080843621428,2.8511209560401767,177.18375408961992,00:02:52.2520000,0,0,0
1.868403673171997,113,0,0,0,1.600797625634641,2.851107295661677,177.18376774999842,00:02:52.2770000,0,0,0
1.8865065574645996,114,0,0,0,1.600797625634641,2.851107295661677,177.18376774999842,00:02:52.2770000,0,0,0
1.9021778106689453,115,0,0,0,1.6007946374270432,2.85109705037803,177.18378141037647,00:02:52.3150000,0,0,0
1.9191622734069824,116,0,0,0,1.6007946374270432,2.85109705037803,177.18378141037647,00:02:52.3150000,0,0,0
1.9363675117492676,117,0,0,0,1.6007893013415924,2.8510902201887802,177.18378141037647,00:02:52.3500000,0,0,0
1.9527595043182373,118,0,0,0,1.6007893013415924,2.8510902201887802,177.18378141037647,00:02:52.3500000,0,0,0
1.9694535732269287,119,0,0,0,1.600793036601317,2.851086805093928,177.18379507075497,00:02:52.3850000,0,0,0
1.985584020614624,120,0,0,0,1.600793036601317,2.851086805093928,177.18379507075497,00:02:52.3850000,0,0,0
2.003042697906494,121,0,0,0,1.6007791627798724,2.85108424377313,177.18380873113347,00:02:52.4120000,0,0,0
2.018583297729492,122,0,0,0,1.600773186364222,2.85107762702728,177.18380873113347,00:02:52.4370000,0,0,0
2.0363361835479736,123,0,0,0,1.600773186364222,2.85107762702728,177.18380873113347,00:02:52.4370000,0,0,0
2.0521399974823,124,0,0,0,1.6007766014586196,2.8510690892908315,177.1838223915115,00:02:52.4720000,0,0,0
2.0686373710632324,125,0,0,0,1.6007766014586196,2.8510690892908315,177.1838223915115,00:02:52.4720000,0,0,0
2.086050271987915,126,0,0,0,1.6007631545239747,2.851055002025987,177.18383605189,00:02:52.4970000,0,0,0
2.101665496826172,127,0,0,0,1.6007641150190466,2.851055002025987,177.18383605189,00:02:52.5220000,0,0,0
2.1187033653259277,128,0,0,0,1.6007641150190466,2.851055002025987,177.18383605189,00:02:52.5220000,0,0,0
2.136293888092041,129,0,0,0,1.6007596327076499,2.8510466777329384,177.1838497122685,00:02:52.5570000,0,0,0
2.152726173400879,130,0,0,0,1.6007596327076499,2.8510466777329384,177.1838497122685,00:02:52.5570000,0,0,0
2.168025493621826,131,0,0,0,1.6007653956799004,2.8510389937700893,177.18386337264656,00:02:52.5800000,0,0,0
2.186434745788574,132,0,0,0,1.6007637948541742,2.851039634100289,177.18386337264656,00:02:52.6020000,0,0,0
2.201852321624756,133,0,0,0,1.6007637948541742,2.851039634100289,177.18386337264656,00:02:52.6020000,0,0,0
2.2186479568481445,134,0,0,0,1.6007550436743259,2.85103173669404,177.18387703302506,00:02:52.6300000,0,0,0
2.2362751960754395,135,0,0,0,1.6007491739806028,2.8510240527311907,177.18387703302506,00:02:52.6520000,0,0,0
2.2518467903137207,136,0,0,0,1.6007491739806028,2.8510240527311907,177.18387703302506,00:02:52.6520000,0,0,0
2.2689731121063232,137,0,0,0,1.600747893319749,2.8510217048537925,177.18389069340355,00:02:52.6920000,0,0,0
2.2860355377197266,138,0,0,0,1.600747893319749,2.8510217048537925,177.18389069340355,00:02:52.6920000,0,0,0
2.3023433685302734,139,0,0,0,1.6007461857725502,2.851011032682891,177.1839043537816,00:02:52.7150000,0,0,0
2.3191094398498535,140,0,0,0,1.600752482353073,2.8510048428238406,177.1839043537816,00:02:52.7270000,0,0,0
2.338144540786743,141,0,0,0,1.600752482353073,2.8510048428238406,177.1839043537816,00:02:52.7270000,0,0,0
2.3557190895080566,142,0,0,0,1.6007399959135,2.8509960916439923,177.1839180141601,00:02:52.7670000,0,0,0
2.3702385425567627,143,0,0,0,1.6007399959135,2.8509960916439923,177.1839180141601,00:02:52.7670000,0,0,0
2.3864428997039795,144,0,0,0,1.6007460790510777,2.8509869135773442,177.1839316745386,00:02:52.8020000,0,0,0
2.4036688804626465,145,0,0,0,1.6007460790510777,2.8509869135773442,177.1839316745386,00:02:52.8020000,0,0,0
2.420807123184204,146,0,0,0,1.6007347665499765,2.8509941706533937,177.18394533491664,00:02:52.8370000,0,0,0
2.4360063076019287,147,0,0,0,1.6007347665499765,2.8509941706533937,177.18394533491664,00:02:52.8370000,0,0,0
2.452683210372925,148,0,0,0,1.6007282565260539,2.8509807237187488,177.18395899529514,00:02:52.8670000,0,0,0
2.470548391342163,149,0,0,0,1.6007263355354553,2.850979656501295,177.18395899529514,00:02:52.8850000,0,0,0
2.4869115352630615,150,0,0,0,1.6007263355354553,2.850979656501295,177.18395899529514,00:02:52.8850000,0,0,0
2.5029923915863037,151,0,0,0,1.6007245212663292,2.8509638616892516,177.18397265567364,00:02:52.9170000,0,0,0
2.5194649696350098,152,0,0,0,1.6007245212663292,2.8509638616892516,177.18397265567364,00:02:52.9170000,0,0,0
2.5365352630615234,153,0,0,0,1.600734446385104,2.850954683622149,177.18397265567364,00:02:52.9570000,0,0,0
2.551992893218994,154,0,0,0,1.600734446385104,2.850954683622149,177.18397265567364,00:02:52.9570000,0,0,0
2.571923017501831,155,0,0,0,1.6007173709122071,2.850950201310752,177.1839863160517,00:02:52.9920000,0,0,0
2.5866599082946777,156,0,0,0,1.6007173709122071,2.850950201310752,177.1839863160517,00:02:52.9920000,0,0,0
2.602686882019043,157,0,0,0,1.600712781878883,2.8509418770177035,177.1839999764302,00:02:53.0220000,0,0,0
2.6187894344329834,158,0,0,0,1.600712781878883,2.8509418770177035,177.1839999764302,00:02:53.0220000,0,0,0
2.636362314224243,159,0,0,0,1.6007039239771075,2.8509416635743037,177.18401363680823,00:02:53.0520000,0,0,0
2.6536037921905518,160,0,0,0,1.6007039239771075,2.8509416635743037,177.18401363680823,00:02:53.0520000,0,0,0
2.669788122177124,161,0,0,0,1.600702750038181,2.850928430082604,177.18401363680823,00:02:53.0850000,0,0,0
2.686758041381836,162,0,0,0,1.600702750038181,2.850928430082604,177.18401363680823,00:02:53.0850000,0,0,0
2.7029716968536377,163,0,0,0,1.6006969870663852,2.850921813336754,177.18402729718673,00:02:53.1250000,0,0,0
2.719590187072754,164,0,0,0,1.6006989080569838,2.850916477251758,177.18404095756523,00:02:53.1400000,0,0,0
2.73671817779541,165,0,0,0,1.6006989080569838,2.850916477251758,177.18404095756523,00:02:53.1400000,0,0,0
2.7525219917297363,166,0,0,0,1.6006875955563373,2.850910927722907,177.18404095756523,00:02:53.1720000,0,0,0
2.7689826488494873,167,0,0,0,1.6006875955563373,2.850910927722907,177.18404095756523,00:02:53.1720000,0,0,0
2.786515474319458,168,0,0,0,1.6006919711462615,2.850897053901008,177.18405461794327,00:02:53.2020000,0,0,0
2.802424430847168,169,0,0,0,1.6006915442594618,2.850892785033011,177.18405461794327,00:02:53.2200000,0,0,0
2.819183826446533,170,0,0,0,1.6006915442594618,2.850892785033011,177.18405461794327,00:02:53.2200000,0,0,0
2.8360073566436768,171,0,0,0,1.600680125036888,2.8508985480052615,177.18406827832177,00:02:53.2520000,0,0,0
2.8523290157318115,172,0,0,0,1.600680125036888,2.8508985480052615,177.18406827832177,00:02:53.2520000,0,0,0
2.869959831237793,173,0,0,0,1.600675536003564,2.8508855279569616,177.18408193870027,00:02:53.2900000,0,0,0
2.8858582973480225,174,0,0,0,1.600675536003564,2.8508855279569616,177.18408193870027,00:02:53.2900000,0,0,0
2.902737855911255,175,0,0,0,1.6006774569941626,2.850882326305964,177.18409559907832,00:02:53.3250000,0,0,0
2.9202322959899902,176,0,0,0,1.6006774569941626,2.850882326305964,177.18409559907832,00:02:53.3250000,0,0,0
2.9359090328216553,177,0,0,0,1.6006714805785123,2.850866531493466,177.18410925945682,00:02:53.3550000,0,0,0
2.952218532562256,178,0,0,0,1.6006714805785123,2.850866531493466,177.18410925945682,00:02:53.3550000,0,0,0
2.9696249961853027,179,0,0,0,1.6006705200834404,2.850859914747616,177.18410925945682,00:02:53.3900000,0,0,0
2.9868860244750977,180,0,0,0,1.6006705200834404,2.850859914747616,177.18410925945682,00:02:53.3900000,0,0,0
3.0029711723327637,181,0,0,0,1.600669132701114,2.8508505232375683,177.18412291983532,00:02:53.4150000,0,0,0
3.019284248352051,182,0,0,0,1.6006683856489872,2.850847321586116,177.18413658021336,00:02:53.4400000,0,0,0
3.0367648601531982,183,0,0,0,1.6006683856489872,2.850847321586116,177.18413658021336,00:02:53.4400000,0,0,0
3.0530617237091064,184,0,0,0,1.6006616621816647,2.850851163567768,177.18413658021336,00:02:53.4700000,0,0,0
3.069676637649536,185,0,0,0,1.6006616621816647,2.850851163567768,177.18413658021336,00:02:53.4700000,0,0,0
3.0868191719055176,186,0,0,0,1.600652804279889,2.8508328074344718,177.18415024059186,00:02:53.5050000,0,0,0
3.102261781692505,187,0,0,0,1.600652804279889,2.8508328074344718,177.18415024059186,00:02:53.5050000,0,0,0
3.119995355606079,188,0,0,0,1.6006485354118922,2.850830246113219,177.18416390097036,00:02:53.5370000,0,0,0
3.1363348960876465,189,0,0,0,1.6006485354118922,2.850830246113219,177.18416390097036,00:02:53.5370000,0,0,0
3.152233600616455,190,0,0,0,1.6006468278646935,2.850817866395573,177.1841775613484,00:02:53.5700000,0,0,0
3.1694350242614746,191,0,0,0,1.6006468278646935,2.850817866395573,177.1841775613484,00:02:53.5700000,0,0,0
3.186371088027954,192,0,0,0,1.6006427724396417,2.8508082614421255,177.1841775613484,00:02:53.6070000,0,0,0
3.2020440101623535,193,0,0,0,1.6006427724396417,2.8508082614421255,177.1841775613484,00:02:53.6070000,0,0,0
3.2195985317230225,194,0,0,0,1.6006442665434406,2.850798443045278,177.1841912217269,00:02:53.6370000,0,0,0
3.2363357543945312,195,0,0,0,1.6006442665434406,2.850798443045278,177.1841912217269,00:02:53.6370000,0,0,0
3.252504348754883,196,0,0,0,1.6006402111188436,2.8508007909226762,177.1842048821054,00:02:53.6720000,0,0,0
3.2685928344726562,197,0,0,0,1.6006402111188436,2.8508007909226762,177.1842048821054,00:02:53.6720000,0,0,0
3.286344051361084,198,0,0,0,1.6006329540427942,2.850793533846627,177.18421854248345,00:02:53.7020000,0,0,0
3.3041508197784424,199,0,0,0,1.6006329540427942,2.850793533846627,177.18421854248345,00:02:53.7020000,0,0,0
3.32102632522583,200,0,0,0,1.6006246297497455,2.8507877708743763,177.18423220286195,00:02:53.7350000,0,0,0
3.3361945152282715,201,0,0,0,1.6006246297497455,2.8507877708743763,177.18423220286195,00:02:53.7350000,0,0,0
3.354642868041992,202,0,0,0,1.600620681046621,2.8507766718171297,177.18423220286195,00:02:53.7750000,0,0,0
3.370001792907715,203,0,0,0,1.600620681046621,2.8507766718171297,177.18423220286195,00:02:53.7750000,0,0,0
3.3877928256988525,204,0.2794891232873313,0.0016525127370361587,-0.025121805537235923,1.6006911173726621,2.8520043983203323,177.18421854248345,00:02:53.8000000,4.150000214576721,0,0.03
3.404487371444702,205,0.2794891232873313,0.0016525127370361587,-0.025121805537235923,1.6006911173726621,2.8520043983203323,177.18421854248345,00:02:53.8000000,4.150000214576721,0,0.03
3.4205398559570312,206,0.26970450084861364,-0.03830678360450547,0.00309581002004852,1.601016191688359,2.860307347030357,177.1838223915115,00:02:53.8400000,7.2950005531311035,0,0.06
3.4378738403320312,207,0.27285111004495993,0.08040342447864822,-0.0037936452454770913,1.6011678432323606,2.8615250416933122,177.18334427826994,00:02:53.8550000,8.625000715255737,0,0.07
3.4549314975738525,208,0.27285111004495993,0.08040342447864822,-0.0037936452454770913,1.6011678432323606,2.8615250416933122,177.18334427826994,00:02:53.8550000,8.625000715255737,0,0.07
3.470806837081909,209,0.26486504319449883,-0.01716605505158077,-0.007727874284467543,1.6014982536330535,2.8617525723698236,177.18227876875926,00:02:53.8850000,10.500001907348633,0,0.1
3.487532138824463,210,0.26486504319449883,-0.01716605505158077,-0.007727874284467543,1.6014982536330535,2.8617525723698236,177.18227876875926,00:02:53.8850000,10.500001907348633,0,0.1
3.503960609436035,211,0.24036922863507643,0.014036487179936375,0.03536212672104593,1.6016334700343577,2.860117595837437,177.1817869951392,00:02:53.9220000,12.604999542236328,0,0.14
3.5204179286956787,212,0.24702421127855775,-0.03643189539400628,0.00682641937462904,1.6016347506947568,2.860249717309216,177.18182797627423,00:02:53.9370000,13.574999570846558,0,0.15
3.537476062774658,213,0.24702421127855775,-0.03643189539400628,0.00682641937462904,1.6016347506947568,2.860249717309216,177.18182797627423,00:02:53.9370000,13.574999570846558,0,0.15
3.554691791534424,214,0.24513691796092316,-0.004073402330951648,-0.0012069523642901912,1.6016166080048606,2.8610832138310798,177.18159574984247,00:02:53.9670000,14.97499942779541,0,0.18
3.5708541870117188,215,0.24513691796092316,-0.004073402330951648,-0.0012069523642901912,1.6016166080048606,2.8610832138310798,177.18159574984247,00:02:53.9670000,14.97499942779541,0,0.18
3.5876924991607666,216,0.23562110252622515,0.019533719189616383,-0.0013329069848354266,1.6015678361854953,2.8611256890699224,177.18063952335842,00:02:54.0050000,16.2850022315979,0,0.21
3.6047518253326416,217,0.23562110252622515,0.019533719189616383,-0.0013329069848354266,1.6015678361854953,2.8611256890699224,177.18063952335842,00:02:54.0050000,16.2850022315979,0,0.21
3.6210033893585205,218,0.011613560607150429,0.0023840949684396035,0.016762998667533974,1.6015301634233765,2.860667639508847,177.17917786287626,00:02:54.0350000,16.910001635551453,0,0.24
3.6378235816955566,219,0.011613560607150429,0.0023840949684396035,0.016762998667533974,1.6015301634233765,2.860667639508847,177.17917786287626,00:02:54.0350000,16.910001635551453,0,0.24
3.654818296432495,220,-0.46922505654375996,-0.023075645563192665,0.03787941133817658,1.6073067959137006,2.85985185879008,177.17845386282397,00:02:54.0720000,17.059999704360962,0,0.19
3.6706254482269287,221,-0.46922505654375996,-0.023075645563192665,0.03787941133817658,1.6073067959137006,2.85985185879008,177.17845386282397,00:02:54.0720000,17.059999704360962,0,0.19
3.6880972385406494,222,-0.5314671027820557,-0.006380806486244546,0.0029669263683055756,1.616564370282049,2.8584749353417465,177.17875439114778,00:02:54.1020000,16.780000925064087,0,0.13
3.7038257122039795,223,-0.5314671027820557,-0.006380806486244546,0.0029669263683055756,1.616564370282049,2.8584749353417465,177.17875439114778,00:02:54.1020000,16.780000925064087,0,0.13
3.721536159515381,224,-0.5387551043657586,0.0009437493354529579,0.019048545471578835,1.6207423116197788,2.8572852017659898,177.17973793838792,00:02:54.1400000,16.43500030040741,0,0.07
3.738245964050293,225,-0.5387551043657586,0.0009437493354529579,0.019048545471578835,1.6207423116197788,2.8572852017659898,177.17973793838792,00:02:54.1400000,16.43500030040741,0,0.07
3.7548635005950928,226,-0.5125004999728873,-0.02473450270310277,-0.00036215947378041163,1.619002747815557,2.856506773644014,177.18085808941214,00:02:54.1720000,16.43500030040741,0,0.01
3.7705111503601074,227,-0.5125004999728873,-0.02473450270310277,-0.00036215947378041163,1.619002747815557,2.856506773644014,177.18085808941214,00:02:54.1720000,16.43500030040741,0,0.01
3.787879467010498,228,-0.481308621840924,0.0018528823027845645,-0.0034304448061389845,1.6167427022523952,2.855320668606055,177.18245635367748,00:02:54.2020000,16.69500172138214,0,0.05
3.8043901920318604,229,-0.481308621840924,0.0018528823027845645,-0.0034304448061389845,1.6167427022523952,2.855320668606055,177.18245635367748,00:02:54.2020000,16.69500172138214,0,0.05
3.8208796977996826,230,-0.48190472457055,0.009054243500423035,0.00893477384770813,1.616708978193401,2.8532413028906376,177.18512012745396,00:02:54.2400000,16.69500172138214,0,0.11
3.8376893997192383,231,-0.463590155929327,0.002098222950598574,-0.04434277126654051,1.6172146256353699,2.852439395993315,177.18663642944966,00:02:54.2550000,16.69500172138214,0,0.13
3.855525255203247,232,-0.463590155929327,0.002098222950598574,-0.04434277126654051,1.6172146256353699,2.852439395993315,177.18663642944966,00:02:54.2550000,16.69500172138214,0,0.13
3.8708817958831787,233,-0.4374405828135088,0.008629710503507521,-0.000981757314778224,1.6181463061266186,2.851257986710152,177.19072088257326,00:02:54.2870000,16.824999451637268,0,0.19
3.8876821994781494,234,-0.4374405828135088,0.008629710503507521,-0.000981757314778224,1.6181463061266186,2.851257986710152,177.19072088257326,00:02:54.2870000,16.824999451637268,0,0.19
3.9054551124572754,235,-0.45900220708455886,-0.00195595994100222,-0.0034894983562509876,1.6184130036695024,2.8514853039437185,177.19454578850855,00:02:54.3220000,16.84499979019165,0,0.24
3.9219892024993896,236,-0.45900220708455886,-0.00195595994100222,-0.0034894983562509876,1.6184130036695024,2.8514853039437185,177.19454578850855,00:02:54.3220000,16.84499979019165,0,0.24
3.938236951828003,237,-0.41888975773099807,0.01862777761761681,-0.004223398696437652,1.6185076658225626,2.8510882991981816,177.19817944914712,00:02:54.3500000,16.84499979019165,0,0.29
3.9553771018981934,238,-0.41888975773099807,0.01862777761761681,-0.004223398696437652,1.6185076658225626,2.8510882991981816,177.19817944914712,00:02:54.3500000,16.84499979019165,0,0.29
3.971810817718506,239,-0.4035681968932971,-0.0006809767778755485,-0.010679685282032005,1.6186602778616361,2.8506460444491495,177.20174480789365,00:02:54.3850000,16.414999961853027,0,0.35
3.9884567260742188,240,-0.4035681968932971,-0.0006809767778755485,-0.010679685282032005,1.6186602778616361,2.8506460444491495,177.20174480789365,00:02:54.3850000,16.414999961853027,0,0.35
4.004673957824707,241,-0.3389012250630185,0.007389857947913697,-0.0038934937427475232,1.6184530243090194,2.8514799678582676,177.20480473264206,00:02:54.4200000,15.424999594688416,0,0.39
4.02149772644043,242,-0.3108439551623538,-0.0021894594539728133,-0.02522088656411506,1.6180956133161999,2.8522046082402994,177.20629371388122,00:02:54.4350000,15.080001950263977,0,0.41
4.038046360015869,243,-0.3108439551623538,-0.0021894594539728133,-0.02522088656411506,1.6180956133161999,2.8522046082402994,177.20629371388122,00:02:54.4350000,15.080001950263977,0,0.41
4.054193735122681,244,-0.2564316709679551,0.009209818225447088,-0.0026032638484306514,1.6171069434340097,2.853239595342984,177.20875258198248,00:02:54.4720000,14.779999852180481,0,0.44
4.07075834274292,245,-0.22814788056872784,-0.0037372728470407308,0.01752708065849729,1.6165588207531982,2.8537431083509546,177.2099137141413,00:02:54.4870000,14.950001239776611,0,0.46
4.08768630027771,246,-0.22814788056872784,-0.0037372728470407308,0.01752708065849729,1.6165588207531982,2.8537431083509546,177.2099137141413,00:02:54.4870000,14.950001239776611,0,0.46
4.104863882064819,247,-0.2704310980901122,0.006293183572540874,0.007710631459543947,1.6160823083368996,2.854186430316986,177.21222231808042,00:02:54.5170000,15.380001068115234,0,0.49
4.121442079544067,248,-0.2704310980901122,0.006293183572540874,0.007710631459543947,1.6160823083368996,2.854186430316986,177.21222231808042,00:02:54.5170000,15.380001068115234,0,0.49
4.137943267822266,249,-0.2721620135359466,0.00011498098375718654,0.03047550089037977,1.6167259469443707,2.855712123822741,177.21443529937187,00:02:54.5570000,15.639999508857727,0,0.52
4.154248237609863,250,-0.2721620135359466,0.00011498098375718654,0.03047550089037977,1.6167259469443707,2.855712123822741,177.21443529937187,00:02:54.5570000,15.639999508857727,0,0.52
4.170889616012573,251,-0.2911722545574419,-0.02614951831689104,-0.016597421425837092,1.6180468414968345,2.8558711391642646,177.21708541276985,00:02:54.5870000,16.33000075817108,0,0.55
4.187798738479614,252,-0.2911722545574419,-0.02614951831689104,-0.016597421425837092,1.6180468414968345,2.8558711391642646,177.21708541276985,00:02:54.5870000,16.33000075817108,0,0.55
4.205483675003052,253,-0.3726652187053114,-0.03598851499108132,-0.023941482312022706,1.6192866275528104,2.8527949927170084,177.22107424324486,00:02:54.6250000,17.57500171661377,0,0.59
4.220229387283325,254,-0.3726652187053114,-0.03598851499108132,-0.023941482312022706,1.6192866275528104,2.8527949927170084,177.22107424324486,00:02:54.6250000,17.57500171661377,0,0.59
4.237851619720459,255,-0.40832525522727514,-0.020684049135365055,0.014606993102357954,1.6206837214031111,2.851559582250502,177.22705748895805,00:02:54.6550000,18.610000610351562,0,0.64
4.25339674949646,256,-0.40832525522727514,-0.020684049135365055,0.014606993102357954,1.6206837214031111,2.851559582250502,177.22705748895805,00:02:54.6550000,18.610000610351562,0,0.64
4.270878553390503,257,-0.48047392458245153,-0.05446783660680521,-0.014024407441430957,1.6223715251803696,2.851370684831636,177.23440677250483,00:02:54.6870000,19.554999470710754,0,0.69
4.286430358886719,258,-0.48047392458245153,-0.05446783660680521,-0.014024407441430957,1.6223715251803696,2.851370684831636,177.23440677250483,00:02:54.6870000,19.554999470710754,0,0.69
4.304937839508057,259,-0.5901228149661794,-0.03339944149608491,-0.0008693855501856888,1.6243455565722797,2.848142566675051,177.24394171658605,00:02:54.7220000,21.365001797676086,0,0.76
4.320889711380005,260,-0.5901228149661794,-0.03339944149608491,-0.0008693855501856888,1.6243455565722797,2.848142566675051,177.24394171658605,00:02:54.7220000,21.365001797676086,0,0.76
4.338597059249878,261,-0.7030234006222337,-0.017913280664221383,-0.006118428081367164,1.6265577908111482,2.844382760980352,177.25482903812326,00:02:54.7550000,23.535001277923584,0,0.83
4.3537092208862305,262,-0.7510892201330512,-0.065290236561466,0.022076318627805448,1.6280965043652031,2.8429347608762328,177.2615089631313,00:02:54.7720000,24.334999918937683,0,0.88
4.370532512664795,263,-0.7510892201330512,-0.065290236561466,0.022076318627805448,1.6280965043652031,2.8429347608762328,177.2615089631313,00:02:54.7720000,24.334999918937683,0,0.88
4.388407230377197,264,-0.8571982824854553,-0.02611574391145259,-0.0062221008016844275,1.6310300706136331,2.8401860366220717,177.2755654924431,00:02:54.8020000,25.709998607635498,0,0.97
4.405796766281128,265,-0.8967896305743605,-0.05992564992154948,0.02072738367030397,1.6324989881723013,2.837981379624125,177.28399394587905,00:02:54.8250000,26.70000195503235,0,1.03
4.421428680419922,266,-0.8967896305743605,-0.05992564992154948,0.02072738367030397,1.6324989881723013,2.837981379624125,177.28399394587905,00:02:54.8250000,26.70000195503235,0,1.03
4.438184976577759,267,-1.1790187184859067,-0.04985242893295362,-0.006910059662137064,1.6351629753917223,2.8330971540372047,177.30164315469437,00:02:54.8570000,28.93500030040741,0,1.14
4.454203844070435,268,-0.8824817768238484,-0.06836694972622208,0.03762778379782103,1.637864421930317,2.8305567505531144,177.31222994790778,00:02:54.8720000,30.164998769760132,0,1.22
4.470484495162964,269,-0.8824817768238484,-0.06836694972622208,0.03762778379782103,1.637864421930317,2.8305567505531144,177.31222994790778,00:02:54.8720000,30.164998769760132,0,1.22
4.488713502883911,270,-0.9085484574291854,-0.010064924659352981,-0.011818903603655053,1.642705211782868,2.8261803068421614,177.33587606281435,00:02:54.9020000,32.35999941825867,0,1.36
4.505440711975098,271,-0.9085484574291854,-0.010064924659352981,-0.011818903603655053,1.642705211782868,2.8261803068421614,177.33587606281435,00:02:54.9020000,32.35999941825867,0,1.36
4.521100282669067,272,-1.2861394420988856,0.09834399044201708,0.005308237359777558,1.6477133412699914,2.8306417010307996,177.36725395186158,00:02:54.9350000,35.00500023365021,0,1.54
4.538472652435303,273,-1.2861394420988856,0.09834399044201708,0.005308237359777558,1.6477133412699914,2.8306417010307996,177.36725395186158,00:02:54.9350000,35.00500023365021,0,1.54
4.555127143859863,274,-1.6304598061338067,0.0038580762257275636,-0.022951667557074687,1.652743989036935,2.8274095274496176,177.40184202981845,00:02:54.9750000,36.855000257492065,0,1.73
4.571167707443237,275,-1.6304598061338067,0.0038580762257275636,-0.022951667557074687,1.652743989036935,2.8274095274496176,177.40184202981845,00:02:54.9750000,36.855000257492065,0,1.73
4.587848663330078,276,-1.882292586737871,-0.04735664376157801,-0.011774019857379607,1.6580403738516907,2.8246915390463982,177.4406101835475,00:02:55.0020000,38.49000036716461,0,1.94
4.606401681900024,277,-1.882292586737871,-0.04735664376157801,-0.011774019857379607,1.6580403738516907,2.8246915390463982,177.4406101835475,00:02:55.0020000,38.49000036716461,0,1.94
4.620720148086548,278,-2.1386235555440187,-0.11894495298736728,0.007781170807706075,1.6628917291532161,2.824611711210764,177.48865373416947,00:02:55.0350000,40.16500115394592,0,2.19
4.638533115386963,279,-2.1386235555440187,-0.11894495298736728,0.007781170807706075,1.6628917291532161,2.824611711210764,177.48865373416947,00:02:55.0350000,40.16500115394592,0,2.19
4.654402494430542,280,-2.177327380208671,-0.10854707575482316,0.024177521840890403,1.6663394805800635,2.827141015637608,177.54028996429452,00:02:55.0720000,41.13500118255615,0,2.43
4.670767307281494,281,-2.177327380208671,-0.10854707575482316,0.024177521840890403,1.6663394805800635,2.827141015637608,177.54028996429452,00:02:55.0720000,41.13500118255615,0,2.43
4.688345432281494,282,-2.1418203057587144,-0.09737235979773104,-0.027722169894515536,1.6688931175558537,2.8278626678120418,177.59994483650553,00:02:55.1050000,41.26499891281128,0,2.68
4.70510721206665,283,-2.1418203057587144,-0.09737235979773104,-0.027722169894515536,1.6688931175558537,2.8278626678120418,177.59994483650553,00:02:55.1050000,41.26499891281128,0,2.68
4.720574140548706,284,-2.102996215715259,-0.14501420914228075,-0.027054287420178295,1.670447946087279,2.827775582900358,177.672030653006,00:02:55.1400000,41.13500118255615,0,2.95
4.736918926239014,285,-2.102996215715259,-0.14501420914228075,-0.027054287420178295,1.670447946087279,2.827775582900358,177.672030653006,00:02:55.1400000,41.13500118255615,0,2.95
4.75373649597168,286,-3.3528467853367325,-0.3751377462986856,-0.00019128889118419465,1.683232139223037,2.811087723210676,177.74410280912798,00:02:55.1700000,40.209999680519104,0,3.36
4.7698564529418945,287,-3.3528467853367325,-0.3751377462986856,-0.00019128889118419465,1.683232139223037,2.811087723210676,177.74410280912798,00:02:55.1700000,40.209999680519104,0,3.36
4.788765907287598,288,-4.093536849595606,0.08639055433054454,0.07776337656495161,1.7103075427016847,2.798154333130242,177.82912500391603,00:02:55.2070000,38.89999985694885,0,3.84
4.803579092025757,289,-4.093536849595606,0.08639055433054454,0.07776337656495161,1.7103075427016847,2.798154333130242,177.82912500391603,00:02:55.2070000,38.89999985694885,0,3.84
4.82082986831665,290,-4.334918671073019,-0.4253383128158748,-0.09433537585516459,1.723508697541547,2.82332059201417,177.9241739164063,00:02:55.2400000,36.77000105381012,0,4.37
4.837499141693115,291,-3.834507727746665,-0.48948188182655716,-0.04420119823822751,1.721254201506781,2.809275375203015,177.97141150470588,00:02:55.2520000,36.250001192092896,0,4.57
4.8552587032318115,292,-3.834507727746665,-0.48948188182655716,-0.04420119823822751,1.721254201506781,2.809275375203015,177.97141150470588,00:02:55.2520000,36.250001192092896,0,4.57
4.871779680252075,293,-4.0804488199636335,-0.22432430369257925,-0.009874219826265471,1.708115051977984,2.7970595818724178,178.09339868328243,00:02:55.2850000,36.70499920845032,0,5.07
4.88764762878418,294,-4.0804488199636335,-0.22432430369257925,-0.009874219826265471,1.708115051977984,2.7970595818724178,178.09339868328243,00:02:55.2850000,36.70499920845032,0,5.07
4.904496192932129,295,-2.4965298157304523,-0.28241306617632506,-0.16160402721697464,1.6823385583807067,2.8196293016544587,178.23429182548125,00:02:55.3220000,37.65000104904175,0,5.35
4.920669078826904,296,-2.235450775614381,-0.2563573270901106,-0.04123928425929043,1.6652959557409304,2.842807548603105,178.2980721319509,00:02:55.3370000,38.01500201225281,0,5.43
4.937304258346558,297,-2.235450775614381,-0.2563573270901106,-0.04123928425929043,1.6652959557409304,2.842807548603105,178.2980721319509,00:02:55.3370000,38.01500201225281,0,5.43
4.954371690750122,298,-2.4756840115785597,-0.13697899678731337,-0.10487679887739941,1.6377883293539526,2.8470497364078255,178.4282555375312,00:02:55.3670000,40.209999680519104,0,5.7
4.972445726394653,299,-2.961230270989239,-0.22740701733985916,-0.006702987074494012,1.6315937746635427,2.8556145801835555,178.49446739134555,00:02:55.3850000,41.62999987602234,0,5.82
4.988163709640503,300,-2.961230270989239,-0.22740701733985916,-0.006702987074494012,1.6315937746635427,2.8556145801835555,178.49446739134555,00:02:55.3850000,41.62999987602234,0,5.82
5.0041985511779785,301,-1.9083638704530894,-0.16033742308095097,0.13254981870083138,1.632290774124158,2.862646686820881,178.62484204222255,00:02:55.4170000,44.33999955654144,0,6.06
5.0207860469818115,302,-1.9083638704530894,-0.16033742308095097,0.13254981870083138,1.632290774124158,2.862646686820881,178.62484204222255,00:02:55.4170000,44.33999955654144,0,6.06
5.03854775428772,303,-2.523397948911786,-0.07980655456404201,0.059394588951882904,1.639450306478011,2.8617762645885705,178.7642735239392,00:02:55.4520000,47.93500006198883,0,6.35
5.05461311340332,304,-2.523397948911786,-0.07980655456404201,0.059394588951882904,1.639450306478011,2.8617762645885705,178.7642735239392,00:02:55.4520000,47.93500006198883,0,6.35
5.070548057556152,305,-3.0057717157661914,-0.2506243363960646,0.17208076010569928,1.6439210921766971,2.8620469108345787,178.91845821426296,00:02:55.4870000,52.88500189781189,0,6.68
5.087928533554077,306,-3.0057717157661914,-0.2506243363960646,0.17208076010569928,1.6439210921766971,2.8620469108345787,178.91845821426296,00:02:55.4870000,52.88500189781189,0,6.68
5.105586528778076,307,-3.06869958884418,-0.2329691997779533,0.0705089758567512,1.645127260895606,2.8538558064724384,179.06085399807944,00:02:55.5250000,57.27499723434448,0,7.03
5.121053457260132,308,-3.2278377191379666,-0.2518263143306598,-0.0008632843889037758,1.6458978983328052,2.8491030620270976,179.13751604132358,00:02:55.5400000,59.34000015258789,0,7.23
5.138437986373901,309,-3.2278377191379666,-0.2518263143306598,-0.0008632843889037758,1.6458978983328052,2.8491030620270976,179.13751604132358,00:02:55.5400000,59.34000015258789,0,7.23
5.154007434844971,310,-3.578432195006311,-0.3256715950032696,-0.007718373520471504,1.6482280600571357,2.8458380181605207,179.2866190709051,00:02:55.5700000,62.67499923706055,0,7.64
5.17054009437561,311,-3.578432195006311,-0.3256715950032696,-0.007718373520471504,1.6482280600571357,2.8458380181605207,179.2866190709051,00:02:55.5700000,62.67499923706055,0,7.64
5.189267158508301,312,-3.857499896277487,-0.31277295046355574,0.02409626644835807,1.6507028296923636,2.845480287002374,179.45621266799662,00:02:55.6070000,66.52500033378601,0,8.11
5.204087257385254,313,-3.9461613455489277,-0.3069872432015836,0.03682466898770071,1.6517642837779931,2.845815606602173,179.5304158431395,00:02:55.6170000,67.8600013256073,0,8.32
5.219769239425659,314,-3.9461613455489277,-0.3069872432015836,0.03682466898770071,1.6517642837779931,2.845815606602173,179.5304158431395,00:02:55.6170000,67.8600013256073,0,8.32
5.23769211769104,315,-4.111231496240198,-0.28908065257305277,-0.01892408340827096,1.6546528134667824,2.8487863120044494,179.6937256661945,00:02:55.6550000,70.27000188827515,0,8.79
5.254008531570435,316,-4.183448591189086,-0.31231534288916735,0.0187884400805342,1.656508597208358,2.8509077260719096,179.78355631415843,00:02:55.6720000,71.04499936103821,0,9.06
5.270500898361206,317,-4.183448591189086,-0.31231534288916735,0.0187884400805342,1.656508597208358,2.8509077260719096,179.78355631415843,00:02:55.6720000,71.04499936103821,0,9.06
5.2871034145355225,318,-4.331638626489043,-0.375925279947184,-0.008004728739269194,1.6591594576584612,2.853586867773629,179.9557727038914,00:02:55.7020000,72.14000225067139,0,9.56
5.303972482681274,319,-4.331638626489043,-0.375925279947184,-0.008004728739269194,1.6591594576584612,2.853586867773629,179.9557727038914,00:02:55.7020000,72.14000225067139,0,9.56
5.321295976638794,320,-4.3831361740142105,-0.43539815373308954,0.01938593333293684,1.6593583869180293,2.854579593080871,-179.84972718683775,00:02:55.7400000,72.39999771118164,0,10.11
5.338641881942749,321,-4.384774296610057,-0.4509734701361507,-0.008763566587067907,1.658620086157498,2.8551543961884818,-179.76374876556565,00:02:55.7570000,72.53000140190125,0,10.35
5.354409217834473,322,-4.411163998624682,-0.4219304406011477,-0.007321849054377526,1.6575975854943863,2.8565012241151635,-179.66139155066367,00:02:55.7720000,72.67500162124634,0,10.62
5.37011981010437,323,-4.411163998624682,-0.4219304406011477,-0.007321849054377526,1.6575975854943863,2.8565012241151635,-179.66139155066367,00:02:55.7720000,72.67500162124634,0,10.62
5.389285087585449,324,-4.415500858785212,-0.4284935254437849,0.013630058378580725,1.6569567216511132,2.8618065735531673,-179.46628036683342,00:02:55.8020000,72.67500162124634,0,11.14
5.404401063919067,325,-4.415500858785212,-0.4284935254437849,0.013630058378580725,1.6569567216511132,2.8618065735531673,-179.46628036683342,00:02:55.8020000,72.67500162124634,0,11.14
5.4213786125183105,326,-4.341154935114085,-0.48488355771824715,-0.01906107730123331,1.658235781294934,2.870623493997755,-179.24936721917175,00:02:55.8350000,71.5149998664856,0,11.69
5.438767433166504,327,-4.341154935114085,-0.48488355771824715,-0.01906107730123331,1.658235781294934,2.870623493997755,-179.24936721917175,00:02:55.8350000,71.5149998664856,0,11.69
5.454428434371948,328,-4.20129959743917,-0.49849385765865445,-0.07685293805599212,1.657285104339735,2.8781986006742954,-179.04152456272823,00:02:55.8750000,69.51500177383423,0,12.2
5.470467805862427,329,-4.20129959743917,-0.49849385765865445,-0.07685293805599212,1.657285104339735,2.8781986006742954,-179.04152456272823,00:02:55.8750000,69.51500177383423,0,12.2
5.487857818603516,330,-4.099753532153367,-0.5074445317575708,-0.05024897680275608,1.6518241546550598,2.881166958198719,-178.827288849222,00:02:55.9050000,68.83000135421753,0,12.68
5.504899501800537,331,-4.0986289120376105,-0.48438196487165985,-0.0042245688818613415,1.648659322469939,2.8804711326770303,-178.70879872750038,00:02:55.9200000,69.19000148773193,0,12.94
5.52257776260376,332,-4.0986289120376105,-0.48438196487165985,-0.0042245688818613415,1.648659322469939,2.8804711326770303,-178.70879872750038,00:02:55.9200000,69.19000148773193,0,12.94
5.538216829299927,333,-4.14814493035674,-0.5548621164927259,-0.00203779343367496,1.645873672505786,2.8786088389110773,-178.4831839188364,00:02:55.9500000,70.13999819755554,0,13.43
5.55440092086792,334,-4.1888790918052194,-0.6776751704845577,0.06976906247595324,1.6459198830043533,2.8789870606365184,-178.35547304173588,00:02:55.9750000,70.52500247955322,0,13.69
5.570538759231567,335,-4.1888790918052194,-0.6776751704845577,0.06976906247595324,1.6459198830043533,2.8789870606365184,-178.35547304173588,00:02:55.9750000,70.52500247955322,0,13.69
5.587219715118408,336,-4.2094416951015585,-0.7559913129609078,0.08027713121785782,1.6475016054055232,2.877248777492696,-178.11129377890757,00:02:56.0050000,70.98000049591064,0,14.19
5.60493278503418,337,-4.2094416951015585,-0.7559913129609078,0.08027713121785782,1.6475016054055232,2.877248777492696,-178.11129377890757,00:02:56.0050000,70.98000049591064,0,14.19
5.620979309082031,338,-4.295290425039828,-0.8288979976091534,0.06851219428265466,1.648696034736986,2.876226810438311,-177.85039421299143,00:02:56.0350000,71.77500128746033,0,14.69
5.637774705886841,339,-4.295290425039828,-0.8288979976091534,0.06851219428265466,1.648696034736986,2.876226810438311,-177.85039421299143,00:02:56.0350000,71.77500128746033,0,14.69
5.654846668243408,340,-4.430715379051864,-0.9481600445885211,-0.010100498296233126,1.6421244322600614,2.884713320481751,-177.55806211651498,00:02:56.0720000,74.22499656677246,0,15.24
5.6708385944366455,341,-4.537006885299086,-1.0100759641449897,-0.01996165542823728,1.6337187105473276,2.8927496783708193,-177.40456044510802,00:02:56.0870000,75.90500116348267,0,15.53
5.687519550323486,342,-4.537006885299086,-1.0100759641449897,-0.01996165542823728,1.6337187105473276,2.8927496783708193,-177.40456044510802,00:02:56.0870000,75.90500116348267,0,15.53
5.7045738697052,343,-4.673991928234696,-0.9021909781612455,0.028213191114738582,1.6160399398195295,2.8984776457632506,-177.10940065031537,00:02:56.1170000,79.06500101089478,0,16.07
5.721468925476074,344,-4.673991928234696,-0.9021909781612455,0.028213191114738582,1.6160399398195295,2.8984776457632506,-177.10940065031537,00:02:56.1170000,79.06500101089478,0,16.07
5.738162279129028,345,-4.937829327148199,-0.9345580010198056,-0.024569140090537255,1.6079075323955294,2.8922164967284516,-176.79681021276065,00:02:56.1500000,81.17499947547913,0,16.64
5.754765748977661,346,-4.937829327148199,-0.9345580010198056,-0.024569140090537255,1.6079075323955294,2.8922164967284516,-176.79681021276065,00:02:56.1500000,81.17499947547913,0,16.64
5.771173477172852,347,-4.956266901114582,-1.0048222083352505,-0.1453034104803577,1.6093031321420312,2.8854757403482836,-176.4477738857945,00:02:56.1900000,82.49000310897827,0,17.28
5.787824630737305,348,-4.956266901114582,-1.0048222083352505,-0.1453034104803577,1.6093031321420312,2.8854757403482836,-176.4477738857945,00:02:56.1900000,82.49000310897827,0,17.28
5.804716110229492,349,-5.1733589154660695,-1.0500327845454216,-0.05774420052950736,1.609535678739121,2.882934483090139,-176.11372299386767,00:02:56.2200000,82.74499773979187,0,17.88
5.820607662200928,350,-5.05780244500637,-1.024453229869902,-0.031894491709675635,1.6071765954329749,2.880944336720404,-175.95612320895862,00:02:56.2350000,82.74499773979187,0,18.16
5.8384974002838135,351,-5.05780244500637,-1.024453229869902,-0.031894491709675635,1.6071765954329749,2.880944336720404,-175.95612320895862,00:02:56.2350000,82.74499773979187,0,18.16
5.854381561279297,352,-4.972159466773271,-1.0870440530132501,0.19647126939343287,1.5945266582029944,2.8695197781166826,-175.5837412954097,00:02:56.2720000,82.24999904632568,0,18.81
5.870827913284302,353,-4.972159466773271,-1.0870440530132501,0.19647126939343287,1.5945266582029944,2.8695197781166826,-175.5837412954097,00:02:56.2720000,82.24999904632568,0,18.81
5.886788606643677,354,-4.9433846231877805,-1.2139913207329809,0.12319557790285907,1.5809334078157917,2.863154682140248,-175.22429576014838,00:02:56.3020000,81.15500211715698,0,19.41
5.904996156692505,355,-4.9433846231877805,-1.2139913207329809,0.12319557790285907,1.5809334078157917,2.863154682140248,-175.22429576014838,00:02:56.3020000,81.15500211715698,0,19.41
5.9212870597839355,356,-4.931508307433128,-1.2873702990680933,0.02558310290605295,1.5595411486137891,2.866752270842426,-174.83236584519454,00:02:56.3400000,80.95999956130981,0,20.04
5.937165260314941,357,-4.931508307433128,-1.2873702990680933,0.02558310290605295,1.5595411486137891,2.866752270842426,-174.83236584519454,00:02:56.3400000,80.95999956130981,0,20.04
5.9548163414001465,358,-5.12007565356791,-1.35649351965487,0.056703304041293444,1.529793967230944,2.8755574518995672,-174.45759336543597,00:02:56.3700000,83.15500020980835,0,20.63
5.971518278121948,359,-5.12007565356791,-1.35649351965487,0.056703304041293444,1.529793967230944,2.8755574518995672,-174.45759336543597,00:02:56.3700000,83.15500020980835,0,20.63
5.988760232925415,360,-5.3048909536927935,-1.3280935007311403,-0.0020527800840194686,1.5044552460708474,2.883543864029889,-174.07227507359903,00:02:56.4070000,86.21000051498413,0,21.24
6.004661321640015,361,-5.554281894102692,-1.404730750209838,-0.019718416690314187,1.494856268966032,2.8879132641081924,-173.86055286970713,00:02:56.4220000,87.69500255584717,0,21.58
6.020503759384155,362,-5.554281894102692,-1.404730750209838,-0.019718416690314187,1.494856268966032,2.8879132641081924,-173.86055286970713,00:02:56.4220000,87.69500255584717,0,21.58
6.03814697265625,363,-5.580261554011702,-1.4832600970454513,-0.07972424657545052,1.480411486088542,2.896833491164216,-173.46022182207435,00:02:56.4570000,89.67499732971191,0,22.23
6.055248498916626,364,-5.580261554011702,-1.4832600970454513,-0.07972424657545052,1.480411486088542,2.896833491164216,-173.46022182207435,00:02:56.4570000,89.67499732971191,0,22.23
6.070538759231567,365,-5.582033824381232,-1.6541992859005927,-0.11203956664623692,1.4614187577190023,2.8999952284198116,-173.0461211130746,00:02:56.4900000,89.82499837875366,0,22.9
6.086922883987427,366,-5.607545282256603,-1.6643894021339714,-0.011103374603798146,1.4470221063311328,2.8975325183369023,-172.81528803988476,00:02:56.5050000,89.47999477386475,0,23.25
6.104421377182007,367,-5.607545282256603,-1.6643894021339714,-0.011103374603798146,1.4470221063311328,2.8975325183369023,-172.81528803988476,00:02:56.5050000,89.47999477386475,0,23.25
6.121138095855713,368,-5.541515936031938,-1.8582532472416757,-0.07605784215554595,1.413630698860743,2.8816935230952367,-172.33314498637355,00:02:56.5350000,84.87499952316284,0,23.96
6.1387176513671875,369,-5.541515936031938,-1.8582532472416757,-0.07605784215554595,1.413630698860743,2.8816935230952367,-172.33314498637355,00:02:56.5350000,84.87499952316284,0,23.96
6.154345512390137,370,-4.944329795083403,-1.9701609859354794,-0.017276784275413955,1.3844195806063908,2.869866196773728,-171.8615614053192,00:02:56.5750000,74.58999752998352,0,24.57
6.170652151107788,371,-4.944329795083403,-1.9701609859354794,-0.017276784275413955,1.3844195806063908,2.869866196773728,-171.8615614053192,00:02:56.5750000,74.58999752998352,0,24.57
6.188525676727295,372,-4.1408389912575485,-2.161970090470463,0.07014771849603857,1.3502699154169022,2.862157901408409,-171.36746552076056,00:02:56.6050000,62.094998359680176,0,25.09
6.20453405380249,373,-4.1408389912575485,-2.161970090470463,0.07014771849603857,1.3502699154169022,2.862157901408409,-171.36746552076056,00:02:56.6050000,62.094998359680176,0,25.09
6.220762491226196,374,-2.7125603383302686,-2.217766650363803,-0.13091837244094348,1.3017248794994885,2.8596452455676626,-170.81141982042982,00:02:56.6350000,45.84499895572662,0,25.52
6.238487005233765,375,-2.7125603383302686,-2.217766650363803,-0.13091837244094348,1.3017248794994885,2.8596452455676626,-170.81141982042982,00:02:56.6350000,45.84499895572662,0,25.52
6.256320476531982,376,-1.7066794147223232,-2.3599903246052563,-0.07368840961046516,1.2335222389856426,2.860046946067996,-170.2771214424165,00:02:56.6720000,30.164998769760132,0,25.79
6.270893573760986,377,-1.7066794147223232,-2.3599903246052563,-0.07368840961046516,1.2335222389856426,2.860046946067996,-170.2771214424165,00:02:56.6720000,30.164998769760132,0,25.79
6.286757707595825,378,-0.7896011024221777,-2.3852891626432537,-0.1681490101473406,1.1486143431443452,2.856765040171922,-169.71776993052754,00:02:56.7050000,18.650001287460327,0,25.94
6.306332349777222,379,-0.3612982772449031,-2.449169368010014,-0.2989565882907249,1.1044411619041057,2.8554024174322876,-169.40306213432996,00:02:56.7200000,13.03500235080719,0,25.99
6.321866750717163,380,-0.004966977040900383,-2.5259791975766417,-0.22077948895888402,1.06285907695883,2.8576055803264353,-169.07952973372494,00:02:56.7370000,8.970001339912415,0,26.01
6.338784456253052,381,0.20957276129517702,-2.5924136174708603,-0.17638311520842834,1.028958927117401,2.8588986205140827,-168.7955714491709,00:02:56.7520000,7.400000095367432,0,26.01
6.353955507278442,382,0.20957276129517702,-2.5924136174708603,-0.17638311520842834,1.028958927117401,2.8588986205140827,-168.7955714491709,00:02:56.7520000,7.400000095367432,0,26.01
6.371100664138794,383,0.3490312451396137,-2.674364463187754,-0.02841434199331561,0.9567466453959241,2.8559552358683504,-168.11214272081907,00:02:56.7870000,7.035002112388611,0,25.99
6.388272047042847,384,0.3490312451396137,-2.674364463187754,-0.02841434199331561,0.9567466453959241,2.8559552358683504,-168.11214272081907,00:02:56.7870000,7.035002112388611,0,25.99
6.403281211853027,385,0.3633841436082497,-2.7591207217141984,0.029395551033411172,0.8947023275532047,2.845149022827627,-167.45654018314644,00:02:56.8220000,7.809999585151672,0,25.97
6.420835971832275,386,0.3292893471090123,-2.79235196018666,0.0824559456948191,0.8630413591818069,2.838820852561639,-167.0959198553478,00:02:56.8400000,8.435001969337463,0,25.95
6.437113046646118,387,0.3292893471090123,-2.79235196018666,0.0824559456948191,0.8630413591818069,2.838820852561639,-167.0959198553478,00:02:56.8400000,8.435001969337463,0,25.95
6.457226037979126,388,0.24378232501419259,-2.7997286264345047,0.0827527549506165,0.8085650510220148,2.8275800687351875,-166.41471776866592,00:02:56.8700000,10.240000486373901,0,25.93
6.470544338226318,389,0.24378232501419259,-2.7997286264345047,0.0827527549506165,0.8085650510220148,2.8275800687351875,-166.41471776866592,00:02:56.8700000,10.240000486373901,0,25.93
6.487316370010376,390,0.10105071951691061,-2.7996184440582987,0.1604138858506456,0.7561547683649223,2.812666137238921,-165.72454081341448,00:02:56.9050000,13.23000192642212,0,25.92
6.504621505737305,391,0.10105071951691061,-2.7996184440582987,0.1604138858506456,0.7561547683649223,2.812666137238921,-165.72454081341448,00:02:56.9050000,13.23000192642212,0,25.92
6.520658254623413,392,-0.12334153484534471,-2.8623876194432376,0.21436377669768406,0.6945044670601419,2.799539367428224,-164.97741374086354,00:02:56.9400000,16.350001096725464,0,25.94
6.538578987121582,393,-0.2768686203243211,-2.8707036123678087,0.10403281320077366,0.6662075269373418,2.7986668107614605,-164.65609432154952,00:02:56.9520000,17.945000529289246,0,25.96
6.555114507675171,394,-0.2768686203243211,-2.8707036123678087,0.10403281320077366,0.6662075269373418,2.7986668107614605,-164.65609432154952,00:02:56.9520000,17.945000529289246,0,25.96
6.5707948207855225,395,-0.4986232561919838,-2.869473778311908,-0.21888437766097485,0.6009533937108245,2.79504659705799,-163.9000060408075,00:02:56.9870000,22.31000065803528,0,26.03
6.5877909660339355,396,-0.6909703400611877,-2.9212290999904273,-0.3354767305070534,0.5743986320740078,2.796387235126076,-163.5726350738887,00:02:57.0050000,24.43999946117401,0,26.07
6.604771137237549,397,-0.6909703400611877,-2.9212290999904273,-0.3354767305070534,0.5743986320740078,2.796387235126076,-163.5726350738887,00:02:57.0050000,24.43999946117401,0,26.07
6.620838403701782,398,-1.0860785689819603,-2.974808714486658,-0.3307521862031892,0.5207185212002514,2.8110936996263263,-162.8571317771948,00:02:57.0320000,29.365000128746033,0,26.18
6.638507604598999,399,-1.0860785689819603,-2.974808714486658,-0.3307521862031892,0.5207185212002514,2.8110936996263263,-162.8571317771948,00:02:57.0320000,29.365000128746033,0,26.18
6.654216527938843,400,-1.483448166963458,-2.8840964701652525,-0.12077082584081217,0.47308739661048094,2.8197076353867487,-162.0810856836979,00:02:57.0720000,35.17500162124634,0,26.36
6.670126676559448,401,-1.483448166963458,-2.8840964701652525,-0.12077082584081217,0.47308739661048094,2.8197076353867487,-162.0810856836979,00:02:57.0720000,35.17500162124634,0,26.36
6.6873462200164795,402,-1.9207034198053181,-2.8747476270616055,-0.04306358164357953,0.43947419475534844,2.8276720628455223,-161.36383385857653,00:02:57.1020000,42.10500121116638,0,26.58
6.70350456237793,403,-1.9207034198053181,-2.8747476270616055,-0.04306358164357953,0.43947419475534844,2.8276720628455223,-161.36383385857653,00:02:57.1020000,42.10500121116638,0,26.58
6.720656394958496,404,-2.4600541885092855,-2.839469685192406,0.002026188048382755,0.41613210330842776,2.8407821840705765,-160.65307071316647,00:02:57.1350000,49.140000343322754,0,26.85
6.737094402313232,405,-2.4600541885092855,-2.839469685192406,0.002026188048382755,0.41613210330842776,2.8407821840705765,-160.65307071316647,00:02:57.1350000,49.140000343322754,0,26.85
6.753977537155151,406,-3.046153118254244,-2.841118621443212,0.2039521632007323,0.3992389377372092,2.8495461705492744,-159.8970917154511,00:02:57.1720000,58.78000259399414,0,27.21
6.770071506500244,407,-3.046153118254244,-2.841118621443212,0.2039521632007323,0.3992389377372092,2.8495461705492744,-159.8970917154511,00:02:57.1720000,58.78000259399414,0,27.21
6.7881178855896,408,-3.81573697630316,-2.7752643395245076,0.49403654945623127,0.39281928028867696,2.83031406539385,-159.20464713739557,00:02:57.2050000,68.84999871253967,0,27.63
6.8037989139556885,409,-3.81573697630316,-2.7752643395245076,0.49403654945623127,0.39281928028867696,2.83031406539385,-159.20464713739557,00:02:57.2050000,68.84999871253967,0,27.63
6.82187032699585,410,-4.303054921561479,-2.786083839702606,0.32531277162823824,0.4132689733855841,2.792974701862022,-158.46350331055737,00:02:57.2420000,75.42999982833862,0,28.16
6.837063789367676,411,-4.303054921561479,-2.786083839702606,0.32531277162823824,0.4132689733855841,2.792974701862022,-158.46350331055737,00:02:57.2420000,75.42999982833862,0,28.16
6.854014158248901,412,-4.677267881165444,-2.9323952216491103,0.18888596536358818,0.4407055497968031,2.7691627414246796,-157.78175480874188,00:02:57.2720000,77.64999866485596,0,28.71
